City,Cloudiness,Country,Date,Humidity,Latitude,Longitude,Max Temp,Wind Speed
bluff,100,NZ,1636845543,88,-46.6,168.3333,50.4,9.31
mgandu,65,TZ,1636845543,51,-5.95,34.1333,68.45,9.51
hofn,100,IS,1636845544,97,64.2539,-15.2082,48.24,28.61
mahebourg,40,MU,1636845544,83,-20.4081,57.7,75.49,9.22
mataura,100,NZ,1636845544,99,-46.1927,168.8643,48.97,1.57
vaini,75,TO,1636845545,78,-21.2,-175.2,80.76,12.66
butaritari,36,KI,1636845545,75,3.0707,172.7902,82.11,15.3
punta arenas,74,PH,1636845546,87,8.9897,125.34,78.31,3.62
norman wells,1,US,1636845364,36,35.2226,-97.4395,60.69,10.36
narsaq,1,GL,1636845546,81,60.9167,-46.05,16.02,3.04
sao filipe,83,IN,1636845547,69,20.5113,76.2129,70.12,4.5
barrow,90,US,1636845547,73,71.2906,-156.7887,15.82,13.8
ushuaia,75,AR,1636845548,33,-54.8,-68.3,56.86,12.66
busselton,43,AU,1636845548,63,-33.65,115.3333,57.04,17.94
bredasdorp,60,ZA,1636845548,89,-34.5322,20.0403,54.28,1.97
tuktoyaktuk,90,CA,1636845549,73,69.4541,-133.0374,19.4,13.8
vardo,100,NO,1636845549,62,70.3705,31.1107,32.99,21.74
axim,20,GH,1636845549,86,4.8699,-2.2405,78.17,6.44
genhe,42,CN,1636845550,88,50.7833,121.5167,16.14,1.7
kapaa,75,US,1636845550,74,22.0752,-159.319,83.12,5.99
arnia,0,IN,1636845551,37,32.5167,74.8,56.79,3.33
baruun-urt,26,MN,1636845551,77,46.6806,113.2792,23.25,5.06
cockburn town,24,AU,1636845551,46,-32.0833,141.0,57.51,19.53
eyl,62,SO,1636845552,75,7.9803,49.8164,77.4,11.88
usinsk,84,RU,1636845552,92,65.9939,57.5281,10.74,8.5
hilo,90,US,1636845553,92,19.7297,-155.09,80.8,6.91
rikitea,50,PF,1636845427,73,-23.1203,-134.9692,73.42,12.68
cabo san lucas,15,BR,1636845553,75,-8.2833,-35.0333,82.33,8.7
puerto colombia,0,ES,1636845553,70,36.5939,-6.233,57.25,5.75
jamestown,90,US,1636845554,96,42.097,-79.2353,38.52,11.01
seddon,90,AU,1636845554,61,-37.8068,144.8916,58.6,7.0
qaanaaq,0,GL,1636845555,54,77.484,-69.3632,-8.82,8.46
lazaro cardenas,59,DO,1636845555,78,19.4558,-71.3261,76.01,2.46
kasongo-lunda,100,CD,1636845556,98,-6.4667,16.8167,68.79,2.59
hobyo,88,SO,1636845556,71,5.3505,48.5268,79.92,11.43
puerto ayacucho,0,ES,1636845374,70,36.5939,-6.233,57.25,5.75
kulhudhuffushi,93,MV,1636845557,80,6.6221,73.07,81.66,25.48
cherskiy,100,RU,1636845557,96,68.75,161.3,17.35,4.68
griffith,90,US,1636845557,71,41.5284,-87.4237,38.05,1.01
puerto ayora,0,ES,1636845558,70,36.5939,-6.233,57.25,5.75
haines junction,90,US,1636845558,81,59.2286,-135.4441,40.68,9.22
codrington,79,AU,1636845558,79,-38.2667,141.9667,51.53,22.28
san cristobal,16,ML,1636845559,20,13.3034,-4.8956,80.92,8.79
upata,76,VE,1636845559,89,8.0086,-62.3989,79.2,4.43
goderich,100,CA,1636845559,70,43.7501,-81.7165,43.92,20.71
harper,67,LR,1636845560,86,4.375,-7.7169,76.96,1.32
yumen,61,CN,1636845560,40,40.2833,97.2,29.07,15.5
atuona,7,PF,1636845561,64,-9.8,-139.0333,77.94,12.1
castro,2,BR,1636845561,92,-24.7911,-50.0119,53.78,10.63
astoria,90,US,1636845371,93,46.1879,-123.8313,56.86,8.01
nikolskoye,100,RU,1636845562,95,59.7035,30.7861,37.87,3.51
port alfred,85,CD,1636845562,57,-7.0349,29.7638,76.5,3.58
kolpashevo,100,RU,1636845563,92,58.3131,82.9089,24.3,8.57
avarua,90,CK,1636845563,83,-21.2078,-159.775,75.25,5.75
tiksi,100,RU,1636845564,97,71.6872,128.8694,-2.2,5.01
ribeira grande,0,ES,1636845564,87,42.7461,-8.4439,57.24,1.14
vieste,99,IT,1636845564,79,41.8825,16.175,60.31,7.56
guerrero negro,1,MX,1636845565,61,17.6667,-100.0,70.83,2.8
ahipara,100,NZ,1636845565,98,-35.1667,173.1667,66.4,14.43
albany,98,US,1636845486,85,42.6001,-73.9662,39.85,10.04
baracoa,88,CU,1636845566,84,20.3467,-74.4958,78.13,4.29
lompoc,1,US,1636845566,36,34.6391,-120.4579,89.91,13.8
paraiso,53,CR,1636845567,95,9.8383,-83.8656,72.46,3.4
bud,97,US,1636845567,76,39.447,-86.1758,37.9,9.69
khatanga,100,RU,1636845567,89,71.9667,102.5,-7.35,7.61
lebu,6,CL,1636845568,70,-37.6167,-73.65,53.92,9.6
callaway,1,US,1636845568,53,30.153,-85.5699,59.95,5.01
hermanus,82,ZA,1636845569,85,-34.4187,19.2345,61.9,5.23
vanimo,97,PG,1636845569,77,-2.6741,141.3028,82.71,1.14
manali,82,IN,1636845570,92,13.1667,80.2667,80.08,3.83
new norfolk,98,LR,1636845570,92,6.6518,-10.5932,72.63,2.59
fortuna,1,US,1636845570,70,40.5982,-124.1573,72.19,3.0
yatou,0,CN,1636845571,59,37.15,122.3833,45.55,4.97
port elizabeth,85,CD,1636845571,57,-7.0349,29.7638,76.5,3.58
vao,5,NC,1636845572,81,-22.6667,167.4833,76.46,8.66
saskylakh,7,RU,1636845572,92,71.9167,114.0833,-17.07,7.54
jilib,20,SO,1636845572,90,0.4883,42.7854,73.51,5.01
san patricio,16,ML,1636845573,20,13.3034,-4.8956,80.92,8.79
asosa,6,ET,1636845573,68,10.0667,34.5333,63.07,5.1
esperance,49,AU,1636845574,63,-33.8667,121.9,55.71,8.48
tatarskaya kargala,0,RU,1636845574,100,47.45,39.9833,29.32,2.24
yanam,80,IN,1636845574,94,16.7333,82.2167,75.33,5.26
paso de los toros,93,BO,1636845575,79,-14.4333,-67.5167,79.57,1.77
lavrentiya,62,RU,1636845575,95,65.5833,-171.0,14.68,4.12
bethel,82,US,1636845576,82,41.3712,-73.414,44.1,3.0
derac,20,HT,1636845576,74,19.65,-71.8167,79.12,6.4
dingle,93,PH,1636845576,91,10.9995,122.6711,78.53,6.15
asyut,0,EG,1636845577,54,27.181,31.1837,69.6,3.69
dikson,13,RU,1636845577,96,73.5069,80.5464,-10.21,1.03
alofi,4,NU,1636845578,74,-19.0595,-169.9187,80.49,3.44
hobart,75,AU,1636845578,65,-42.8794,147.3294,55.26,4.0
valley,69,US,1636845579,81,45.1277,-116.1262,41.61,6.44
martapura,100,ID,1636845579,94,-3.4167,114.85,77.09,2.3
taoudenni,16,ML,1636845580,15,22.6783,-3.9836,77.5,6.29
sibolga,97,ID,1636845580,86,1.7427,98.7792,75.83,3.33
okato,100,NZ,1636845581,98,-39.2,173.8833,69.42,13.15
zaysan,97,KZ,1636845581,83,47.4667,84.8667,27.61,2.86
palana,100,RU,1636845582,86,59.1167,159.9667,31.96,5.14
maniitsoq,0,GL,1636845582,56,65.4167,-52.9,14.16,9.37
saint-philippe,92,RE,1636845582,85,-21.3585,55.7679,74.75,11.3
esil,98,KZ,1636845583,96,51.9556,66.4042,28.44,17.31
tahlequah,1,US,1636845583,29,35.9154,-94.97,50.22,0.0
clyde river,80,US,1636845448,78,41.3042,-82.9752,39.61,16.82
healdsburg,40,US,1636845584,61,38.6105,-122.8692,80.91,4.0
neiafu,75,TO,1636845584,94,-18.65,-173.9833,77.68,0.0
matara,88,LK,1636845584,91,5.9485,80.5353,76.42,9.04
urubicha,85,BO,1636845585,76,-15.3833,-62.95,78.15,4.88
chicaman,73,GT,1636845492,93,15.4,-90.7667,60.04,3.74
porto novo,56,PT,1636845397,79,41.1496,-8.611,57.22,4.0
krasnoturansk,92,RU,1636845586,86,54.3186,91.5639,29.19,4.74
naze,98,JP,1636845586,84,28.3667,129.4833,59.92,13.87
mys shmidta,64,RU,1636845586,96,62.0589,48.6201,17.26,4.74
carnarvon,0,AU,1636845587,73,-24.8667,113.6333,71.67,11.5
meulaboh,100,ID,1636845587,87,4.1363,96.1285,76.3,3.4
grand forks,24,US,1636845588,38,38.8755,-109.5012,60.58,4.29
talnakh,100,RU,1636845588,92,69.4865,88.3972,9.5,11.74
vila franca do campo,24,PT,1636845589,65,42.0304,-8.1588,46.92,3.49
lund,100,SE,1636845589,87,55.7058,13.1932,45.72,6.82
klaksvik,100,FO,1636845590,96,62.2266,-6.589,47.32,31.47
flinders,16,AU,1636845590,50,-34.5833,150.8552,66.06,8.99
rocha,0,UY,1636845326,70,-34.4833,-54.3333,62.1,16.62
almeirim,81,BR,1636845590,62,-1.5233,-52.5817,83.75,6.06
camocim,26,BR,1636845591,79,-2.9022,-40.8411,81.07,12.68
kodiak,90,US,1636845591,69,57.79,-152.4072,27.91,6.91
pangnirtung,94,CA,1636845592,87,66.1451,-65.7125,-1.03,4.59
terrace bay,90,CA,1636845444,100,54.5163,-128.6035,42.42,4.61
batagay-alyta,95,RU,1636845592,93,67.8006,130.4114,-17.79,4.21
yerbogachen,100,RU,1636845593,99,61.2767,108.0108,-0.87,3.11
leshukonskoye,50,RU,1636845593,93,64.8989,45.7622,20.84,4.94
ambulu,100,ID,1636845593,87,-8.345,113.6058,76.08,2.55
cape town,6,CL,1636845594,40,-36.413,-71.9028,62.02,13.35
bozeman,75,US,1636845594,47,45.6796,-111.0386,51.22,5.01
victor harbor,57,US,1636845595,86,42.9826,-77.4089,39.63,3.0
pevek,100,RU,1636845595,93,69.7008,170.3133,4.53,3.94
port blair,85,CD,1636845596,57,-7.0349,29.7638,76.5,3.58
grindavik,90,IS,1636845596,100,63.8424,-22.4338,49.95,34.52
yellowknife,90,CA,1636845594,100,62.456,-114.3525,29.41,8.05
avera,0,US,1636845597,35,33.194,-82.5271,60.67,10.67
abu samrah,44,IN,1636845597,37,24.6,72.7,55.81,2.77
alice springs,1,US,1636845597,26,27.7523,-98.0697,72.97,8.05
cibitoke,100,BI,1636845598,66,-2.8833,29.25,66.49,3.56
airai,100,TL,1636845598,83,-8.9266,125.4092,66.47,1.03
coari,98,BR,1636845599,97,-4.085,-63.1414,73.42,1.57
asau,97,RO,1636845599,78,46.4333,26.4,42.4,3.02
pavlodar,75,KZ,1636845599,86,52.3,76.95,26.4,6.71
kaitangata,100,NZ,1636845600,96,-46.2817,169.8464,49.69,4.72
bandarbeyla,65,SO,1636845600,76,9.4942,50.8122,77.77,12.15
loukhi,100,RU,1636845600,95,66.0764,33.0381,25.92,7.05
faya,0,SA,1636845601,43,18.3851,42.4509,53.71,1.1
parvatsar,1,IN,1636845601,28,26.8833,74.7667,62.83,4.43
san matias,16,ML,1636845573,20,13.3034,-4.8956,80.92,8.79
ramhormoz,7,IR,1636845601,43,31.28,49.6035,64.9,6.04
corpus christi,40,HN,1636845602,52,13.2889,-87.0347,89.04,6.91
necochea,85,AR,1636845602,52,-38.5473,-58.7368,65.84,5.91
saint-georges,20,GD,1636845603,83,12.0564,-61.7485,80.28,11.5
nyurba,30,RU,1636845603,97,63.2842,118.3319,-13.56,4.23
saint-joseph,94,RE,1636845604,83,-21.3667,55.6167,73.76,5.3
mitsamiouli,55,KM,1636845604,75,-11.3847,43.2844,79.77,11.34
gigmoto,98,PH,1636845605,87,13.7796,124.39,80.64,3.87
ardakan,0,IR,1636845605,41,32.31,54.0175,48.58,2.28
thompson,75,CA,1636845595,93,55.7435,-97.8558,23.16,4.61
faanui,97,PF,1636845606,72,-16.4833,-151.75,79.11,14.23
namibe,70,AO,1636845606,79,-15.1961,12.1522,70.86,8.55
hasaki,98,JP,1636845606,59,35.7333,140.8333,50.4,17.18
marsh harbour,31,GB,1636845607,88,53.6512,-1.8078,51.08,3.06
honiara,60,SB,1636845607,69,-9.4333,159.95,85.95,5.01
lianyuan,16,CN,1636845607,77,27.6883,111.6642,51.49,1.72
san juan,16,ML,1636845608,20,13.3034,-4.8956,80.92,8.79
hamilton,90,US,1636845516,75,39.1834,-84.5333,40.08,1.01
hovd,46,MN,1636845608,52,48.0056,91.6419,27.32,8.01
chara,64,RU,1636845609,82,56.9064,118.2631,2.52,1.9
gardendale,20,US,1636845609,69,33.6601,-86.8128,48.06,6.91
touros,44,BR,1636845609,80,-5.1989,-35.4608,81.5,17.2
sao joao da barra,83,IN,1636845547,69,20.5113,76.2129,70.12,4.5
kahului,40,US,1636845610,63,20.8947,-156.47,88.86,12.66
georgetown,20,MY,1636845917,94,5.4112,100.3354,76.95,0.0
marzuq,3,YE,1636845611,23,14.4,46.4667,63.41,0.98
iquitos,75,PE,1636845611,89,-3.7481,-73.2472,78.84,3.44
kargasok,97,RU,1636845611,94,59.0556,80.8572,23.27,9.1
beloha,26,MG,1636845612,95,-25.1667,45.05,69.89,5.75
mar del plata,90,ES,1636845612,91,43.4002,-4.0094,58.01,1.99
megalopoli,100,GR,1636845613,90,37.4011,22.1422,56.41,2.21
laguna,20,US,1636845613,94,38.421,-121.4238,79.21,5.75
cidreira,0,BR,1636845381,71,-30.1811,-50.2056,66.97,25.12
pacific grove,41,US,1636845613,77,38.482,-90.7415,39.38,1.01
yulara,0,AU,1636845614,30,-25.2406,130.9889,67.84,14.97
kizema,93,RU,1636845614,99,61.113,44.8302,19.06,2.33
severo-kurilsk,54,RU,1636845615,77,50.6789,156.125,39.0,17.58
santa cruz de la palma,91,PH,1636845615,83,17.486,120.4348,77.34,4.14
derzhavinsk,90,KZ,1636845616,93,51.1,66.3167,28.18,18.77
jiblah,23,YE,1636845616,60,13.9216,44.1467,56.71,5.26
tungor,36,RU,1636845616,79,53.3808,142.9564,25.74,10.25
torbay,90,CA,1636845617,93,47.6666,-52.7314,48.58,25.32
sal rei,100,JO,1636845617,22,32.5694,35.9119,65.01,10.09
richards bay,90,US,1636845617,93,46.8361,-95.9123,26.85,13.8
alenquer,91,BR,1636845618,68,-1.9417,-54.7383,84.54,2.66
tazovskiy,100,RU,1636845618,93,67.4667,78.7,3.56,16.8
yar-sale,47,RU,1636845618,92,66.8333,70.8333,5.29,4.27
lima,75,PE,1636845423,72,-12.0432,-77.0282,67.89,9.22
ilulissat,4,GL,1636845619,72,69.2167,-51.1,-14.67,6.55
teya,98,RU,1636845619,89,60.3778,92.6267,20.01,9.57
boa vista,26,CM,1636845619,90,4.4296,8.9742,77.41,2.39
bria,72,CF,1636845620,86,6.5423,21.9863,72.5,2.59
chokurdakh,100,RU,1636845620,89,70.6333,147.9167,-3.15,9.84
cayenne,0,GF,1636845621,85,4.9333,-52.3333,81.09,5.01
algeciras,1,ES,1636845621,88,36.1333,-5.4505,64.17,13.8
provideniya,99,RU,1636845621,97,64.3833,-173.3,24.4,2.64
stromness,45,GB,1636845622,91,58.965,-3.296,52.05,14.0
luderitz,5,NA,1636845622,58,-26.6481,15.1594,67.39,15.82
huilong,0,CN,1636845623,67,31.8111,121.655,54.03,8.59
ivanteyevka,100,RU,1636845623,96,55.9711,37.9208,37.49,3.87
paranaiba,99,BR,1636845623,61,-19.6772,-51.1908,77.45,3.53
ust-maya,100,RU,1636845624,96,60.4167,134.5333,-0.36,6.42
cabano,86,PH,1636845624,83,10.5869,122.7002,80.83,11.25
fort nelson,100,NL,1636845624,91,52.6517,6.3861,50.95,5.41
belyy yar,99,RU,1636845625,79,55.8402,32.9419,34.61,3.44
isangel,75,VU,1636845625,78,-19.55,169.2667,82.51,0.0
adre,0,TD,1636845626,19,13.4667,22.2,75.72,13.6
kruisfontein,33,ZA,1636845626,87,-34.0033,24.7314,59.88,11.83
hithadhoo,85,MV,1636845626,77,-0.6,73.0833,81.59,14.18
sisimiut,39,GL,1636845627,89,66.9395,-53.6735,6.57,9.42
darhan,43,MN,1636845627,64,49.4867,105.9228,26.65,2.84
iranshahr,0,IR,1636845628,25,27.2025,60.6848,64.08,2.15
panguipulli,98,CL,1636845628,85,-39.6333,-72.3333,53.31,3.49
perth,0,AU,1636845423,52,-31.9333,115.8333,64.04,31.07
ayr,40,GB,1636845628,93,55.4627,-4.6339,47.1,3.44
saint-pierre,0,RE,1636845629,73,-21.3393,55.4781,74.84,6.91
coahuayana,3,MX,1636845629,68,18.7333,-103.6833,89.08,4.81
longyearbyen,40,SJ,1636845630,52,78.2186,15.6401,8.44,14.97
killarney,88,IE,1636845630,97,52.05,-9.5167,54.61,4.21
springbok,17,ZA,1636845630,42,-29.6643,17.8865,66.07,5.59
ponta do sol,100,PT,1636845631,64,38.7333,-28.2667,58.8,19.42
waipawa,8,NZ,1636845631,59,-41.4122,175.5153,63.3,16.89
arraial do cabo,2,BR,1636845631,85,-22.8362,-46.646,60.21,12.55
emet,59,TR,1636845632,39,39.343,29.2585,44.78,3.36
bilibino,100,RU,1636845632,92,68.0546,166.4372,9.09,5.7
oriximina,66,BR,1636845633,61,-1.7656,-55.8661,82.49,3.09
zonguldak,100,TR,1636845633,52,41.25,31.8333,43.84,3.65
bozoum,58,CF,1636845634,74,6.3193,16.3799,74.25,2.26
kuytun,100,RU,1636845634,94,54.3419,101.5036,24.69,4.63
yarmouth,90,US,1636845634,84,41.7057,-70.2286,56.17,8.99
mogadishu,63,SO,1636845635,77,2.0371,45.3438,79.7,13.4
charters towers,99,US,1636845635,73,38.5736,-83.4333,40.78,7.54
santa ines,91,PH,1636845615,83,17.486,120.4348,77.34,4.14
baudh,95,IN,1636845635,96,20.8416,84.3213,71.8,4.05
salalah,0,OM,1636845636,49,17.0151,54.0924,73.49,4.61
savalou,17,BJ,1636845636,78,7.9281,1.9756,78.48,6.15
katherine,46,AU,1636845636,51,-14.4667,132.2667,82.72,12.66
kutum,0,SD,1636845637,21,14.2,24.6667,69.03,9.13
grand river south east,24,US,1636845638,38,38.8755,-109.5012,60.58,4.29
bambous virieux,69,MU,1636845638,71,-20.2567,57.4061,74.35,11.5
amos,100,CA,1636845638,96,48.5669,-78.1162,34.07,8.41
norton shores,68,ZW,1636845639,67,-17.8833,30.7,67.28,5.55
kogon,0,UZ,1636845639,56,39.7228,64.5517,39.24,4.61
sao bartolomeu de messines,83,IN,1636845640,69,20.5113,76.2129,70.12,4.5
langsa,100,ID,1636845640,95,4.4683,97.9683,74.08,2.04
mackay,29,AU,1636845578,44,-21.15,149.2,83.05,11.03
esfarayen,3,IR,1636845641,70,37.0765,57.5101,28.06,1.52
san quintin,16,ML,1636845608,20,13.3034,-4.8956,80.92,8.79
beringovskiy,100,RU,1636845641,95,63.05,179.3167,24.15,2.93
kapuskasing,90,CA,1636845641,93,49.4169,-82.4331,30.29,12.66
lichinga,25,MZ,1636845642,59,-13.3128,35.2406,68.58,7.74
lorengau,96,PG,1636845642,73,-2.0226,147.2712,84.07,5.7
campbell river,90,US,1636845643,76,38.9501,-84.3833,39.6,1.01
zyryanskoye,100,RU,1636845643,92,56.8306,86.6258,23.67,10.29
alta floresta,40,NO,1636845644,91,69.9689,23.2717,29.44,4.61
suntar,18,RU,1636845644,99,62.1444,117.6319,-11.16,3.11
sola,99,VU,1636845645,75,-13.8833,167.55,82.4,16.04
bambanglipuro,100,ID,1636845645,91,-7.95,110.2833,76.12,2.42
upernavik,95,GL,1636845645,93,72.7868,-56.1549,5.13,5.08
hazorasp,21,UZ,1636845646,66,41.3194,61.0742,39.04,9.62
wasilla,20,US,1636845641,76,61.5814,-149.4394,22.39,4.0
shimoda,95,JP,1636845646,65,34.6667,138.95,62.96,8.61
coquimbo,0,CL,1636845380,72,-29.9533,-71.3436,60.53,14.97
mecca,37,SA,1636845446,65,21.4267,39.8261,77.38,4.23
kargopol,32,RU,1636845647,80,61.5071,38.9456,25.97,3.13
lata,62,PT,1636845647,73,40.1629,-8.3327,52.03,3.76
caravelas,100,BR,1636845647,88,-17.7125,-39.2481,68.18,11.97
kurilsk,64,RU,1636845648,75,45.2333,147.8833,45.07,8.86
smirnykh,11,RU,1636845648,69,49.75,142.8333,30.4,2.48
khilok,65,RU,1636845648,97,51.3674,110.4676,18.63,4.56
chippewa falls,90,US,1636845649,93,46.3,-84.4834,35.6,10.36
ramona,1,US,1636845649,21,33.0417,-116.8681,87.93,5.01
merauke,83,ID,1636845650,71,-8.4667,140.3333,84.22,4.07
formoso do araguaia,94,BR,1636845650,90,-14.9467,-46.2319,68.32,5.68
shieli,73,KZ,1636845651,38,44.1667,66.75,31.84,8.55
vestmanna,90,FO,1636845651,93,62.1564,-7.1664,45.52,21.85
sarkand,21,KZ,1636845651,52,45.41,79.9186,37.99,6.06
agadez,100,NE,1636845652,13,19.75,10.25,80.76,7.78
liku,100,ID,1636845652,93,-0.7275,119.8922,75.83,2.57
yinchuan,0,CN,1636845653,32,38.4681,106.2731,35.89,3.74
nalut,28,LY,1636845653,39,30.3333,10.85,65.3,9.08
yangjiang,34,CN,1636845654,63,21.85,111.9667,60.93,6.58
geraldton,90,AU,1636845654,83,-28.7667,114.6,68.41,10.36
tuni,84,IN,1636845654,94,17.35,82.55,74.46,6.71
iqaluit,20,CA,1636845655,76,63.7506,-68.5145,-4.27,18.99
saint-francois,75,FR,1636845655,98,46.4154,3.9054,50.47,6.91
mandurah,70,AU,1636845655,55,-32.55,115.7,64.22,19.39
east london,100,IS,1636845656,100,65.0,-15.0,44.35,17.36
wanning,73,CN,1636845656,77,18.8003,110.3967,67.8,8.9
tautira,69,PF,1636845656,64,-17.7333,-149.15,86.02,9.71
acapulco,1,MX,1636845657,70,16.8634,-99.8901,84.02,5.75
denham springs,90,GB,1636845657,81,51.5667,-0.5,53.08,6.91
ouango,94,CF,1636845658,97,4.3133,22.5552,70.02,1.72
rundu,93,NA,1636845658,31,-17.9333,19.7667,80.37,5.73
goure,82,NE,1636845659,14,13.9835,10.2704,84.02,7.94
khorixas,82,NA,1636845659,34,-20.3667,14.9667,75.6,9.46
new amsterdam,98,LR,1636845660,92,6.6518,-10.5932,72.63,2.59
grand gaube,24,US,1636845638,38,38.8755,-109.5012,60.58,4.29
eltham,86,NZ,1636845660,93,-39.4292,174.3,68.18,11.99
tasiilaq,100,GL,1636845660,89,65.6145,-37.6368,33.96,27.98
guayaramerin,59,BO,1636845661,92,-10.8368,-65.3614,75.27,1.88
asilah,0,MA,1636845661,77,35.465,-6.0348,64.36,14.18
avesta,59,SE,1636845662,99,60.1455,16.1679,35.13,2.89
dufftown,25,GB,1636845662,96,57.4333,-3.1333,46.42,5.77
talkha,4,EG,1636845662,69,31.0539,31.3779,66.42,5.39
santa rosalia,91,PH,1636845663,83,17.486,120.4348,77.34,4.14
mizdah,68,LY,1636845663,83,31.4451,12.9801,60.39,15.05
agar,6,IN,1636845663,47,23.7,76.0167,59.31,5.64
victoria,9,HK,1636845426,59,22.2855,114.1577,69.33,1.01
rawson,100,AR,1636845650,68,-43.3002,-65.1023,61.68,8.03
troitskoye,100,RU,1636845664,99,52.9821,84.6757,31.87,7.27
inuvik,90,CA,1636845664,89,68.3499,-133.7218,16.56,10.36
ericeira,55,PT,1636845665,91,38.9627,-9.4156,62.35,6.73
vredendal,76,ZA,1636845665,66,-31.6683,18.5012,65.89,6.89
sitka,90,US,1636845666,87,57.0531,-135.33,39.09,6.91
soanierana ivongo,20,MG,1636845666,88,-18.9363,47.5246,64.29,4.61
shelburne,87,CA,1636845371,97,44.0787,-80.2041,37.27,14.09
aswan,0,EG,1636845666,68,24.0934,32.907,70.9,5.75
deniliquin,32,AU,1636845667,51,-35.5333,144.9667,54.0,14.38
havre-saint-pierre,40,CA,1636845667,100,50.2334,-63.5986,39.2,2.3
nanortalik,2,GL,1636845668,70,60.1432,-45.2371,21.76,29.39
oksovskiy,46,RU,1636845668,87,62.6062,39.8984,25.05,2.21
pisco,0,PE,1636845668,72,-13.7,-76.2167,66.25,17.27
aksu,2,CN,1636845669,45,41.1231,80.2644,31.69,1.63
maragogi,24,BR,1636845669,76,-9.0122,-35.2225,78.55,10.65
matata,100,NZ,1636845670,99,-37.8833,176.75,72.52,10.74
mombetsu,61,JP,1636845670,75,44.3525,143.3525,44.85,7.23
bilma,82,NE,1636845670,15,18.6853,12.9164,79.81,6.4
malkangiri,80,IN,1636845671,95,18.35,81.9,71.15,2.48
salinas,1,US,1636845547,44,36.6777,-121.6555,82.0,4.61
portland,75,US,1636845682,92,45.5234,-122.6762,60.21,1.99
riberalta,75,BO,1636845671,94,-10.9833,-66.1,75.4,0.0
tulnici,98,RO,1636845672,62,45.9167,26.6667,39.38,4.32
viedma,100,AR,1636845672,85,-40.8135,-62.9967,60.44,10.36
sobolevo,72,RU,1636845672,89,54.4299,31.8996,32.49,4.79
antalya,0,TR,1636845673,47,36.7741,30.7178,55.99,9.22
bobcaygeon,87,CA,1636845673,75,44.5462,-78.542,40.64,12.37
amazar,29,RU,1636845674,88,53.858,120.875,15.96,2.64
washougal,75,US,1636845548,86,45.5826,-122.3534,62.92,0.0
cortes,87,ES,1636845674,73,41.9395,-1.4396,56.48,18.34
ilmajoki,90,FI,1636845675,73,62.7333,22.5667,29.98,3.44
cermik,12,TR,1636845675,45,38.1361,39.4493,36.09,0.85
aasiaat,78,GL,1636845675,97,68.7098,-52.8699,-7.1,5.79
port said,85,CD,1636845562,57,-7.0349,29.7638,76.5,3.58
chuy,0,UY,1636845676,74,-33.6971,-53.4616,63.84,19.06
praia da vitoria,40,CV,1636845676,73,14.9215,-23.5087,75.74,10.36
takoradi,22,GH,1636845677,84,4.8845,-1.7554,79.02,6.4
aklavik,90,CA,1636845677,85,68.2191,-135.0107,16.52,6.91
tankara,97,IN,1636845677,40,22.6667,70.7333,77.9,7.43
farafangana,100,MG,1636845678,87,-22.8167,47.8333,74.43,8.03
gat,100,IL,1636845678,37,31.61,34.7642,74.91,5.88
muisne,97,EC,1636845678,82,0.6,-80.0333,77.11,7.81
araouane,95,ML,1636845668,12,18.9048,-3.5265,78.58,6.42
demyansk,100,RU,1636845679,87,57.643,32.466,35.08,3.62
egvekinot,90,RU,1636845680,90,66.3167,-179.1667,7.14,3.0
halifax,100,CA,1636845598,96,44.6453,-63.5724,53.6,1.01
komsomolskiy,49,UZ,1636845680,80,40.4272,71.7189,36.32,6.91
qasigiannguit,7,GL,1636845680,87,68.8193,-51.1922,-14.12,5.99
gobabis,78,NA,1636845681,34,-22.45,18.9667,74.01,7.38
moyale,95,KE,1636845681,77,3.5167,39.0584,68.68,5.66
zyryanka,100,RU,1636845681,96,65.75,150.85,2.88,10.18
pithapuram,88,IN,1636845682,94,17.1167,82.2667,74.66,6.67
dwarka,98,IN,1636845682,49,22.2394,68.9678,78.39,8.5
vaasa,20,FI,1636845683,100,63.096,21.6158,35.94,2.3
zhigansk,48,RU,1636845683,100,66.7697,123.3711,-27.6,2.82
araguacu,89,BR,1636845683,83,-12.9306,-49.8264,76.1,1.52
ust-nera,100,RU,1636845684,99,64.5667,143.2,-0.2,5.35
asbestovskiy,98,RU,1636845684,96,57.7557,61.3967,23.49,5.61
altamira,98,BR,1636845684,70,-3.2033,-52.2064,80.83,2.59
buritama,50,BR,1636845685,52,-21.0661,-50.1472,75.61,5.93
dali,74,CN,1636845685,92,25.7,100.1833,50.94,1.9
surt,100,LY,1636845685,50,31.2089,16.5887,71.08,12.19
bonavista,100,CA,1636845686,91,48.6499,-53.1147,48.2,24.18
flin flon,99,FR,1636845686,99,48.4982,6.6557,50.27,4.81
casma,71,CL,1636845389,55,-41.0082,-73.1244,54.68,4.27
tena,78,EC,1636845686,81,-0.9833,-77.8167,83.16,1.59
ngorongoro,51,TZ,1636845389,77,-3.2397,35.4875,52.93,4.9
namtsy,39,RU,1636845687,98,62.7161,129.6658,-18.29,4.68
lavumisa,32,SZ,1636845687,92,-27.31,31.892,69.21,2.24
ardalstangen,36,NO,1636845688,95,61.2371,7.6983,30.43,4.97
nichinan,98,JP,1636845688,75,31.6,131.3667,55.08,2.62
formosa,0,AR,1636845688,51,-26.1775,-58.1781,84.18,13.8
broome,40,US,1636845689,72,42.2506,-75.833,40.46,11.01
scottsbluff,20,US,1636845425,34,41.8666,-103.6672,64.63,8.01
kavieng,60,PG,1636845689,64,-2.5744,150.7967,84.07,9.04
jimenez,0,MX,1636845690,21,28.3333,-105.4,81.34,4.68
krutikha,100,RU,1636845690,96,53.9599,81.2093,30.47,12.39
beoumi,52,CI,1636845690,88,7.6736,-5.5764,76.78,2.84
celestun,79,MX,1636845691,69,20.8667,-90.4,78.66,14.54
campbellsville,58,US,1636845691,55,37.3434,-85.3419,38.84,5.64
bosaso,7,SO,1636845691,76,11.2842,49.1816,76.64,4.25
bathsheba,40,BB,1636845692,74,13.2167,-59.5167,81.21,12.66
provost,9,CA,1636845692,39,52.3501,-110.2683,45.82,16.64
lanzhou,53,CN,1636845693,35,36.0564,103.7922,20.48,1.14
socol,98,RO,1636845693,78,44.8608,21.3703,51.89,1.01
lawrenceburg,90,US,1636845693,71,38.0373,-84.8966,39.56,3.0
beauvais,90,FR,1636845693,97,49.4167,2.0,50.81,1.01
inverell,0,AU,1636845694,45,-29.7833,151.1167,64.11,8.01
cabadiangan,71,PH,1636845694,85,9.7531,122.4739,79.66,4.56
vanderhoof,80,CA,1636845694,79,54.0166,-124.0198,37.33,0.92
damietta,73,EG,1636845695,64,31.4165,31.8133,73.29,4.61
bengkulu,100,ID,1636845695,90,-3.8004,102.2655,75.16,4.27
ondjiva,99,AO,1636845695,41,-17.0667,15.7333,78.19,3.83
celarevo,100,RS,1636845696,62,45.2694,19.5253,48.22,3.42
mananjary,91,MG,1636845696,85,-21.2167,48.3333,75.25,9.82
fonte boa,100,IT,1636845697,78,45.7839,11.8746,55.02,3.33
oussouye,100,SN,1636845697,67,12.485,-16.5469,78.98,5.03
vila do maio,24,PT,1636845697,65,42.0304,-8.1588,46.92,3.49
marienburg,100,PL,1636845698,74,54.0359,19.0266,44.85,5.48
buala,20,SB,1636845698,67,-8.145,159.5921,85.46,6.49
ponta delgada,100,PT,1636845698,64,38.7333,-28.2667,58.8,19.42
cairns,76,AU,1636845699,52,-16.9167,145.7667,88.11,11.5
chipinge,41,ZW,1636845699,85,-20.1883,32.6236,61.52,3.42
amapa,63,BR,1636845700,62,1.0,-52.0,81.01,5.1
half moon bay,90,LR,1636845700,85,6.3807,-10.6953,73.29,5.03
kathu,99,TH,1636845700,99,7.9178,98.3332,80.69,1.79
cotonou,40,BJ,1636845701,79,6.3654,2.4183,84.18,11.5
ntoum,99,GA,1636845701,97,0.3833,9.7833,78.57,3.18
lohardaga,98,IN,1636845701,95,23.4333,84.6833,66.06,0.49
marawi,98,PH,1636845702,89,7.9986,124.2928,68.65,1.88
lincoln,1,US,1636845702,65,40.8,-96.667,43.18,5.01
anloga,16,GH,1636845702,80,5.7947,0.8973,82.62,9.6
port macquarie,85,CD,1636845571,57,-7.0349,29.7638,76.5,3.58
mao,0,ES,1636845703,82,39.8885,4.2658,59.56,14.97
poitiers,90,FR,1636845703,66,46.5833,0.3333,52.21,6.91
camana,78,PE,1636845703,81,-16.6228,-72.7111,64.99,8.08
omboue,97,GA,1636845438,94,-1.5746,9.2618,76.03,5.03
jacareacanga,100,BR,1636845704,98,-6.2222,-57.7528,74.61,1.86
redmond,100,US,1636845653,89,47.674,-122.1215,51.55,1.01
mosquera,75,CO,1636845705,94,4.7059,-74.2302,55.49,3.44
isilkul,100,RU,1636845705,96,54.9109,71.2728,27.01,10.85
leh,0,IN,1636845705,47,34.1667,77.5833,17.26,3.18
akureyri,75,IS,1636845705,71,65.6835,-18.0878,46.33,24.16
barro,68,BR,1636845706,36,-6.7167,-38.8667,86.76,3.2
ibra,0,OM,1636845706,27,22.6906,58.5334,66.76,4.23
bani walid,88,DO,1636845707,81,18.2833,-70.3333,80.04,7.23
barsovo,82,RU,1636845707,96,61.1667,73.1667,8.73,5.1
port shepstone,85,CD,1636845596,57,-7.0349,29.7638,76.5,3.58
sawtell,0,AU,1636845707,43,-30.3833,153.1,74.19,11.5
camacha,40,PT,1636845708,72,33.0833,-16.3333,65.16,9.22
nantucket,4,US,1636845521,86,41.2835,-70.0995,55.99,29.46
melekhovo,68,RU,1636845708,97,56.2773,41.2935,26.53,5.37
fare,100,PF,1636845709,66,-16.7,-151.0167,78.78,11.81
bereda,64,ES,1636845709,99,43.2686,-7.5406,51.91,3.18
raudeberg,41,NO,1636845709,67,61.9875,5.1352,43.2,4.74
tsiroanomandidy,98,MG,1636845710,79,-18.7667,46.0333,68.0,2.13
prainha,39,BR,1636845710,64,-1.8,-53.48,81.59,3.36
arlit,92,NE,1636845710,13,18.7369,7.3853,79.57,10.0
brae,99,GB,1636845711,92,60.3964,-1.353,49.91,16.82
porto velho,56,PT,1636845541,79,41.1496,-8.611,57.22,4.0
hargeysa,10,SO,1636845711,72,9.56,44.065,62.42,10.94
jardim,12,BR,1636845712,48,-21.4803,-56.1381,81.84,10.29
mabaruma,100,GY,1636845712,88,8.2,-59.7833,75.25,3.53
okha,69,RU,1636845713,78,53.5739,142.9478,27.19,13.29
alihe,0,CN,1636845713,72,50.5667,123.7167,20.5,2.95
rio grande,100,GR,1636845713,76,38.3,21.7833,61.59,5.48
buraydah,100,SA,1636845714,37,26.326,43.975,64.85,8.7
ketchikan,90,US,1636845714,87,55.3422,-131.6461,43.27,6.91
boulder city,1,US,1636845715,31,40.0833,-105.3505,58.78,4.0
plettenberg bay,99,DE,1636845715,97,51.2167,7.8833,44.29,1.79
lokosovo,76,RU,1636845715,99,61.1333,74.8167,4.39,4.14
richard toll,64,CA,1636845716,88,52.7001,-107.668,39.18,7.05
shingu,99,JP,1636845716,71,33.7333,135.9833,54.59,3.56
noyabrsk,79,RU,1636845716,97,63.1994,75.4507,0.28,9.8
ambilobe,87,MG,1636845717,80,-13.2,49.05,74.46,4.59
zaria,88,NG,1636845717,21,11.1113,7.7227,73.38,4.88
shenjiamen,0,CN,1636845718,71,29.9576,122.298,56.59,6.6
bam,0,IR,1636845718,34,29.106,58.357,56.84,9.33
hay river,3,GB,1636845718,93,52.0705,-3.1274,49.86,1.79
debre tabor,64,MK,1636845719,85,41.525,20.5275,45.82,0.94
srednekolymsk,100,RU,1636845719,96,67.45,153.6833,8.01,6.08
kusa,100,RU,1636845719,95,55.3383,59.4406,23.94,7.83
ayan,100,RU,1636845720,64,56.45,138.1667,20.07,16.87
albania,66,AL,1636845720,76,41.0,20.0,52.99,4.0
tonantins,95,BR,1636845721,81,-2.8731,-67.8022,76.84,2.19
houma,1,US,1636845654,51,29.5958,-90.7195,57.2,5.75
smithers,75,CA,1636845721,87,54.7804,-127.1743,35.92,2.3
kapoeta,54,SS,1636845722,42,4.7717,33.5903,83.52,13.76
margate,100,GB,1636845722,89,51.3813,1.3862,51.96,7.0
kuching,40,MY,1636845617,94,1.55,110.3333,77.22,2.3
hengshan,95,CN,1636845723,91,45.2,130.9167,30.74,5.68
praya,40,CV,1636845723,73,14.9215,-23.5087,75.74,10.36
zhuhai,0,CN,1636845723,64,22.2769,113.5678,69.06,12.66
bairiki,40,KI,1636845724,66,1.3292,172.9752,86.0,11.5
muriti,84,TZ,1636845724,70,-1.9833,32.9167,76.41,13.76
ariquemes,100,BR,1636845724,98,-9.9133,-63.0408,74.91,3.04
eregli,97,TR,1636845725,34,37.5133,34.0467,46.35,1.34
tselinnoye,100,RU,1636845725,97,53.0833,85.6667,31.15,9.78
ejido,100,VE,1636845726,96,8.5514,-71.2375,68.09,0.36
majene,100,ID,1636845726,85,-3.5403,118.9707,77.52,5.88
baherden,1,TM,1636845727,65,38.4362,57.4316,48.07,3.4
fairbanks,1,US,1636845448,79,64.8378,-147.7164,3.6,0.0
visnes,40,NO,1636845727,87,59.3556,5.2242,41.58,9.22
olenegorsk,75,RU,1636845728,95,68.15,33.3,19.13,4.94
bronnoysund,20,NO,1636845728,93,65.4625,12.1997,32.0,1.14
kiunga,98,PG,1636845728,68,-6.1219,141.2906,83.59,1.99
sheridan,90,US,1636845729,36,44.8333,-106.9173,49.01,1.01
loksa,100,EE,1636845729,90,59.5764,25.7214,37.42,5.99
grand baie,24,US,1636845638,38,38.8755,-109.5012,60.58,4.29
tommot,84,RU,1636845730,98,58.9564,126.2925,-4.52,2.75
hualmay,30,PE,1636845730,80,-11.0964,-77.6139,65.39,9.48
port hardy,85,CD,1636845562,57,-7.0349,29.7638,76.5,3.58
oranjemund,5,NA,1636845731,87,-28.55,16.4333,61.65,14.16
olafsvik,100,IS,1636845731,92,64.8945,-23.7142,47.3,33.67
aguining,19,PH,1636845731,82,10.0861,124.5944,80.91,3.04
college,20,US,1636845732,79,64.8569,-147.8028,3.58,0.0
ankang,2,CN,1636845732,72,32.68,109.0172,43.32,0.54
korla,3,CN,1636845733,44,41.7597,86.1469,30.52,2.68
juegang,0,CN,1636845733,64,32.3174,121.1855,50.92,8.3
atar,10,MR,1636845733,34,20.5169,-13.0499,79.79,3.6
stykkisholmur,95,IS,1636845607,93,65.0757,-22.7297,45.16,19.17
kununurra,19,AU,1636845734,33,-15.7667,128.7333,87.78,10.36
ilheus,90,BR,1636845734,88,-14.7889,-39.0494,73.22,12.66
rengo,8,CL,1636845734,38,-34.4167,-70.8667,70.12,6.17
talara,0,PE,1636845735,77,-4.5772,-81.2719,68.76,16.11
petrivka,82,UA,1636845735,91,46.9695,30.9591,50.45,8.34
huarmey,24,PE,1636845736,79,-10.0681,-78.1522,65.77,9.71
morondava,3,MG,1636845736,85,-20.2833,44.2833,76.68,4.63
harboore,73,DK,1636845736,92,56.6175,8.1807,46.96,16.22
vila velha,24,PT,1636845589,65,42.0304,-8.1588,46.92,3.49
kharan,0,PK,1636845737,13,28.5833,65.4167,58.44,5.03
port moresby,85,CD,1636845737,57,-7.0349,29.7638,76.5,3.58
havelock,0,US,1636845737,84,34.8791,-76.9013,64.35,6.22
kaeo,100,NZ,1636845738,99,-35.1,173.7833,66.97,14.09
cap malheureux,100,FR,1636845738,67,49.2718,-1.2104,55.85,8.57
blagoyevo,19,RU,1636845739,95,63.3667,47.9167,16.23,3.71
maningrida,99,AU,1636845739,48,-12.0667,134.2667,83.61,14.05
north bend,100,FR,1636845577,95,50.3333,3.6667,50.43,6.02
igarka,100,RU,1636845740,95,67.4667,86.5833,9.48,11.12
villa carlos paz,100,IT,1636845740,98,46.2039,10.1339,50.5,0.27
dogondoutchi,8,NE,1636845740,21,13.6393,4.0287,84.04,2.42
valparaiso,0,CL,1636845710,42,-33.0393,-71.6273,67.64,5.75
penzance,6,GB,1636845741,87,50.1186,-5.5371,52.81,6.73
numan,46,NG,1636845741,35,9.4667,12.0333,79.86,3.18
pilar,10,BR,1636845742,82,-9.5972,-35.9567,76.93,5.14
puerto pinasco,0,ES,1636845558,70,36.5939,-6.233,57.25,5.75
sinjar,14,IQ,1636845742,41,36.3209,41.8754,54.77,3.02
kasamwa,89,TZ,1636845743,80,-2.85,32.4333,70.54,3.33
tual,84,ID,1636845743,72,-5.6667,132.75,83.98,6.26
gizo,70,SB,1636845744,69,-8.103,156.8419,84.43,3.69
mubi,34,NG,1636845744,25,10.2676,13.2644,75.94,1.99
